Name,ProvidedLanguageName,GlottologL1Name,WalsGenusName,Place,Latitude,Longitude,PlaceOfLatLong,PlaceName,LanguageFamily,Choice,Memo
Jia,English,English,Germanic,"Auckland, NZ",-36.8519,174.7689,"Auckland, NZ","Auckland, NZ",Indo-European,1,
Ulvhild F├ªr├©vik,Norwegian,Norwegian,Germanic,Bergen,60.391262,5.322054,Bergen,,Indo-European,1,
Niels Chr. Hansen,Danish,Danish,Germanic,Jyllinge,55.7535209,12.1086079,Jyllinge,,Indo-European,1,
Peter Pfordresher,English,English,Germanic,"Buffalo, NY",42.88023,-78.878738,"Buffalo, NY","Buffalo, NY",Indo-European,1,
Dilyana Kurdova,Bulgarian,Bulgarian,Slavic,Varna,43.2073873,27.9166653,Varna,,Indo-European,1,
Dhwani P. Sadaphal,Hindi,Hindi,Indic,"New Delhi, Sagar, Pune, Nagpur",21.1498134,79.0820556,Napgur,"Napgur, India",Indo-European,1,
Felix Haiduk,German,German,Germanic,"Leipzig, Germany",51.3406321,12.3747329,"Leipzig, Germany",,Indo-European,1,
Larrouy,German,German,Germanic,Frankfurt,50.1109,8.6821,Frankfurt,Frankfurt,Indo-European,1,
Psyche Loui,English,English,Germanic,Boston,42.3399,-71.0899,Boston,Boston,Indo-European,1,
Polina Proutskova,Russian,Russian,Slavic,"London, UK",51.5241,0.0404,"London, UK","London, UK",Indo-European,1,
Andrea Ravignani,Italian,Italian,Romance,"Rome, Italy",41.8933203,12.4829321,"Rome, Italy",,Indo-European,1,
Pisanski,French,French,Romance,University of Saint-Etienne,45.4397,4.3872,University of Saint-Etienne,University of Saint-Etienne,Indo-European,1,
Wojciech Krzy┼╝anowski,Polish,Polish,Slavic,Gorz├│w Wielkopolski,52.7309926,15.2400451,Gorz├│w Wielkopolski,,Indo-European,1,
Teona Lomsadze,Georgian,Georgian,Kartvelian,Gori,41.9818469,44.1117811,Gori,,Kartvelian,1,
Shahaboddin Dabaghi Varnosfaderani,Persian,Western Farsi,Iranian,Isfahan,32.6707877,51.6650002,Isfahan,Isfahan,Indo-European,1,
Fang Liu,Mandarin,Mandarin Chinese,Chinese,"Reading, UK",51.4551,0.9787,"Reading, UK","Reading, UK",Sino-Tibetan,1,
Huang,Mandarin,Mandarin Chinese,Chinese,"London, UK",51.5241,0.0404,"London, UK","London, UK",Sino-Tibetan,1,
Jia,Mandarin,Mandarin Chinese,Chinese,"Auckland, NZ",-36.8519,174.7689,"Auckland, NZ","Auckland, NZ",Sino-Tibetan,1,
Ma,Mandarin,Mandarin Chinese,Chinese,"Ann Arbor, MI, USA",42.2771,-83.7382,"Ann Arbor, MI, USA","Ann Arbor, MI, USA",Sino-Tibetan,1,
Gakuto Chiba,Japanese,Japanese,Japanese,Fujisawa,35.3392,139.4901,Fujisawa,Fujisawa,Japonic,1,
Florence Nweke,Yoruba,Yoruba,Defoid,Lagos,6.4550575,3.3941795,Lagos,,Atlantic-Congo,1,
Adwoa Arhine,Fante,Akan,Tano,Cape Coast,5.107467,-1.2430793,Cape Coast,,Atlantic-Congo,1,
Suzanne Purdy,Te Reo M─üori,Maori,Oceanic,Auckland,-36.8519,174.7689,Auckland,Auckland,Austronesian,1,
Leongomez,Spanish,Spanish,Romance,"Universidad El Bosque, Colombia",4.7103,-74.0322,"Universidad El Bosque, Colombia","Universidad El Bosque, Colombia",Indo-European,1,
Christina Vanden Bosch der Nederlanden,English,English,Germanic,Toronto,43.65107,-79.347015,Toronto,Toronto,Indo-European,1,
Trainor,English,English,Germanic,Hamilton,43.2609,-79.9192,Hamilton,Hamilton,Indo-European,1,
Prapatsorn Tiratanti,Thai,Thai,Kam-Tai,"Bangkok, Thailand",13.7524938,100.4935089,,,Tai-Kadai,1,
Nguqu,IsiZulu,Zulu,Bantu,"Lusikisiki, Eastern Cape",-31.36144,29.56449,,,Atlantic-Congo,1,
Joshua Bamford,Finnish,Finnish,Finnic,University of Jyvèskylè,62.2365,25.7316,University of Jyvèskylè,University of Jyvèskylè,Uralic,1,
Ferenc Honbolygo,Hungarian,Hungarian,Hungaric,Budapest,47.497913,19.040236,Budapest,Budapest,Uralic,1,
Uswatun Khasanah,Bahasa Indonesia,Standard Indonesian,Malayo-Sumbawan,Surakarta,-7.5755,110.8243,Surakarta,Surakarta,Austronesian,1,
Tudor Popescu,Romanian,Romanian,Romance,,46,25,,,Indo-European,1,
Roberto Zariquiey,Shipibo-Konibo,Shipibo-Conibo,Panoan,,-7.5,-75,,,Pano-Tacanan,1,
Kim,Korean,Korean,Korean,Seoul,37.5666791,126.978291,Seoul,,Koreanic,1,
Raviv,Dutch,Dutch,Germanic,"Max Planck Institute for Psycholinguistics, Nijmegen",51.818,5.8571,"Max Planck Institute for Psycholinguistics, Nijmegen","Max Planck Institute for Psycholinguistics, Nijmegen",Indo-European,1,
Kolios,Greek,Greek,Greek,Athens,37.9838,23.7275,,Athens,Indo-European,1,
Pavlov,Russian,Russian,Slavic,Ekaterinburg,56.8431,60.6454,,Ekaterinburg,Indo-European,1,
Grassi,Italian,Italian,Romance,University of Padua,45.4067,11.8772,,University of Padua,Indo-European,1,
Dias,Sinhala,Sinhala,Indic,"University of the Visual and Performing Arts, Colombo 07, Sri Lanka",6.9066,79.8596,,"University of the Visual and Performing Arts, Colombo 07, Sri Lanka",Indo-European,1,
Tuncgenc,English,English,Germanic,Nottingham Trent U,52.9581,-1.1542,,Nottingham Trent U,Indo-European,1,
Thompson,English,English,Germanic,Bond U,-28.0731,153.4166,,Bond U,Indo-European,1,
Hajc,Czech,Czech,Slavic,Charles University,50.0871,14.4235,Charles University,,Indo-European,1,
Talamini,German,German,Germanic,"Innsbruck, Austria",47.2675,11.391,"Innsbruck, Austria",,Indo-European,1,